[
  {
    "id": "B0FFK4DTPC",
    "name": "北京大学第三医院首都国际机场院区",
    "location": "116.596548,40.051347",
    "type": "医疗保健服务;综合医院;三级甲等医院",
    "typecode": "090101",
    "address": "岗山路9号",
    "tel": "010-64581188;010-64591120"
  },
  {
    "id": "B000A9DPJ4",
    "name": "中国人民解放军总医院",
    "location": "116.276578,39.904572",
    "type": "医疗保健服务;综合医院;三级甲等医院",
    "typecode": "090101",
    "address": "复兴路28号",
    "tel": "010-66937748;010-68182255"
  },
  {
    "id": "B0FFG765BA",
    "name": "北京市第一中西医结合医院CBD院区",
    "location": "116.471802,39.916809",
    "type": "医疗保健服务;综合医院;三级甲等医院",
    "typecode": "090101",
    "address": "朝外金台路13号",
    "tel": "010-85993431"
  },
  {
    "id": "B0FFJXXE78",
    "name": "中国人民解放军火箭军特色医学中心",
    "location": "116.372456,39.956684",
    "type": "医疗保健服务;综合医院;三级甲等医院",
    "typecode": "090101",
    "address": "新街口外大街16号院",
    "tel": "010-66343114;010-66343144"
  },
  {
    "id": "B000A24092",
    "name": "首都医科大学附属北京中医医院",
    "location": "116.407913,39.931876",
    "type": "医疗保健服务;综合医院;三级甲等医院",
    "typecode": "090101",
    "address": "美术馆后街23号(南锣鼓巷地铁站F东北口步行480米)",
    "tel": "010-84712345"
  },
  {
    "id": "B0FFF33T81",
    "name": "首都医科大学附属北京佑安医院",
    "location": "116.355761,39.866660",
    "type": "医疗保健服务;综合医院;三级甲等医院",
    "typecode": "090101",
    "address": "右安门外西头条8号",
    "tel": "010-83997599"
  },
  {
    "id": "B0FFJXD1X0",
    "name": "中国人民解放军总医院第六医学中心",
    "location": "116.324117,39.921941",
    "type": "医疗保健服务;综合医院;三级甲等医院",
    "typecode": "090101",
    "address": "阜成路6号(白堆子地铁站D西南口步行160米)",
    "tel": "010-66958311;010-66958327"
  },
  {
    "id": "B000A88E9T",
    "name": "北京中医药大学第三附属医院",
    "location": "116.409215,39.978393",
    "type": "医疗保健服务;综合医院;三级甲等医院",
    "typecode": "090101",
    "address": "安定门外小关51号",
    "tel": "010-52075325"
  },
  {
    "id": "B000A8316D",
    "name": "中国医学科学院整形外科医院",
    "location": "116.198602,39.942676",
    "type": "医疗保健服务;专科医院;整形美容",
    "typecode": "090201",
    "address": "八大处路33号(近北京射击场)",
    "tel": "010-53968000"
  },
  {
    "id": "B0FFLQ3QBJ",
    "name": "北京同仁医院(亦庄院区)",
    "location": "116.519723,39.775100",
    "type": "医疗保健服务;综合医院;三级甲等医院",
    "typecode": "090101",
    "address": "西环南路2号",
    "tel": ""
  },
  {
    "id": "B0FFFW46IU",
    "name": "北京协和医院东单院区国际医疗部",
    "location": "116.416300,39.912217",
    "type": "医疗保健服务;综合医院;三级甲等医院",
    "typecode": "090101",
    "address": "东单协和医院内科楼最南端",
    "tel": "010-69156699"
  },
  {
    "id": "B0FFJB7CN2",
    "name": "北京中医药大学东直门医院(通州院区)",
    "location": "116.644712,39.884025",
    "type": "医疗保健服务;综合医院;三级甲等医院",
    "typecode": "090101",
    "address": "梨园地区翠屏西路116号",
    "tel": "010-80816655"
  },
  {
    "id": "B000A45A34",
    "name": "北京市回民医院",
    "location": "116.362801,39.882113",
    "type": "医疗保健服务;综合医院;三级甲等医院",
    "typecode": "090101",
    "address": "右安门内大街11号",
    "tel": "010-63520892"
  },
  {
    "id": "B000A0F466",
    "name": "北京市平谷区中医医院",
    "location": "117.120746,40.156154",
    "type": "医疗保健服务;综合医院;综合医院",
    "typecode": "090100",
    "address": "平谷镇平翔路6号",
    "tel": "010-69970900;010-69970916;010-69970969"
  },
  {
    "id": "B000A7ZOR8",
    "name": "首都医科大学附属北京儿童医院",
    "location": "116.354351,39.912503",
    "type": "医疗保健服务;综合医院;三级甲等医院",
    "typecode": "090101",
    "address": "南礼士路56号",
    "tel": "010-59616161"
  },
  {
    "id": "B000A7ZGO3",
    "name": "北京中医药大学东方医院方庄院区",
    "location": "116.432265,39.864075",
    "type": "医疗保健服务;综合医院;三级甲等医院",
    "typecode": "090101",
    "address": "方庄芳星园一区6号",
    "tel": "010-67689655;010-67689620;010-67689653"
  },
  {
    "id": "B000A52E0B",
    "name": "北京医院",
    "location": "116.415057,39.903772",
    "type": "医疗保健服务;综合医院;三级甲等医院",
    "typecode": "090101",
    "address": "东单大华路1号",
    "tel": "010-85132114;010-85132266"
  },
  {
    "id": "B000A84SNR",
    "name": "中国医学科学院肿瘤医院",
    "location": "116.446921,39.872940",
    "type": "医疗保健服务;专科医院;肿瘤医院",
    "typecode": "090207",
    "address": "潘家园南里17号",
    "tel": "010-67781331"
  },
  {
    "id": "B0FFG85DIY",
    "name": "北京大学人民医院(白塔寺院区)",
    "location": "116.366192,39.924732",
    "type": "医疗保健服务;综合医院;三级甲等医院",
    "typecode": "090101",
    "address": "阜成门内大街133号",
    "tel": "010-66583666"
  },
  {
    "id": "B0FFL47CJC",
    "name": "解放军总医院第九医学中心",
    "location": "116.378478,39.995300",
    "type": "医疗保健服务;综合医院;三级甲等医院",
    "typecode": "090101",
    "address": "奥运村街道安翔北里9号",
    "tel": "010-66356100;010-66356729"
  },
  {
    "id": "B0FFG96OEN",
    "name": "中国中医科学院广安门医院南区",
    "location": "116.340081,39.744517",
    "type": "医疗保健服务;综合医院;三级甲等医院",
    "typecode": "090101",
    "address": "清源街道兴丰大街2段138号",
    "tel": "010-60283683"
  },
  {
    "id": "B000A7ONOT",
    "name": "北京市第一中西医结合医院(东坝院区)",
    "location": "116.553308,39.972813",
    "type": "医疗保健服务;综合医院;三级甲等医院",
    "typecode": "090101",
    "address": "东坝乡东风大队二条",
    "tel": "010-84318600"
  },
  {
    "id": "B000A8VUX1",
    "name": "空军特色医学中心",
    "location": "116.301346,39.921520",
    "type": "医疗保健服务;综合医院;三级甲等医院",
    "typecode": "090101",
    "address": "阜成路30号",
    "tel": "010-66928118"
  },
  {
    "id": "B000A3EA6A",
    "name": "首都医科大学宣武医院",
    "location": "116.362275,39.891298",
    "type": "医疗保健服务;综合医院;三级甲等医院",
    "typecode": "090101",
    "address": "长椿街45号",
    "tel": "010-83198277"
  },
  {
    "id": "B000ABCNEQ",
    "name": "解放军总医院第五医学中心北院区",
    "location": "116.277876,39.885138",
    "type": "医疗保健服务;综合医院;三级甲等医院",
    "typecode": "090101",
    "address": "西四环中路100号",
    "tel": "010-66933129;010-66933114"
  },
  {
    "id": "B000A87C55",
    "name": "北京积水潭医院(回龙观院区)",
    "location": "116.322073,40.086589",
    "type": "医疗保健服务;综合医院;三级甲等医院",
    "typecode": "090101",
    "address": "回龙观街道回南北路68号",
    "tel": "010-58516688"
  },
  {
    "id": "B000A843P7",
    "name": "北京协和医院西单院区",
    "location": "116.367298,39.912623",
    "type": "医疗保健服务;综合医院;三级甲等医院",
    "typecode": "090101",
    "address": "大木仓胡同41号",
    "tel": "010-69156114"
  },
  {
    "id": "B0FFFE5H6F",
    "name": "首都医科大学附属北京地坛医院顺义院区",
    "location": "116.757842,40.100238",
    "type": "医疗保健服务;综合医院;三级甲等医院",
    "typecode": "090101",
    "address": "李遂镇南孙路李遂段799号",
    "tel": "010-80400088;010-89482747"
  },
  {
    "id": "B000A561A6",
    "name": "首都医科大学附属首都儿童医学中心",
    "location": "116.439482,39.914922",
    "type": "医疗保健服务;专科医院;专科医院",
    "typecode": "090200",
    "address": "雅宝路2号",
    "tel": "010-85695555"
  },
  {
    "id": "B000A82Z2N",
    "name": "北京协和医院(东单院区)",
    "location": "116.415768,39.912682",
    "type": "医疗保健服务;综合医院;三级甲等医院",
    "typecode": "090101",
    "address": "帅府园1号",
    "tel": "010-69156114"
  },
  {
    "id": "B000A7YVTM",
    "name": "中国中医科学院广安门医院",
    "location": "116.351730,39.890596",
    "type": "医疗保健服务;综合医院;三级甲等医院",
    "typecode": "090101",
    "address": "北线阁5号",
    "tel": "010-88001222;010-83123311"
  },
  {
    "id": "B000A845NT",
    "name": "首都医科大学附属北京朝阳医院院本部",
    "location": "116.453397,39.925878",
    "type": "医疗保健服务;综合医院;三级甲等医院",
    "typecode": "090101",
    "address": "工人体育场南路8号",
    "tel": "010-85231777"
  },
  {
    "id": "B000A83G5E",
    "name": "首都医科大学附属北京地坛医院",
    "location": "116.526118,40.023090",
    "type": "医疗保健服务;综合医院;三级甲等医院",
    "typecode": "090101",
    "address": "京顺东街8号",
    "tel": "010-84322000;010-84322566"
  },
  {
    "id": "B0FFM4L4R5",
    "name": "首都医科大学附属北京朝阳医院(常营院区)",
    "location": "116.602295,39.922325",
    "type": "医疗保健服务;综合医院;三级甲等医院",
    "typecode": "090101",
    "address": "东十里堡路3号",
    "tel": "010-85231777"
  },
  {
    "id": "B000A7RDMO",
    "name": "中国中医科学院望京医院",
    "location": "116.473094,39.982433",
    "type": "医疗保健服务;综合医院;三级甲等医院",
    "typecode": "090101",
    "address": "花家地街6号",
    "tel": ""
  },
  {
    "id": "B0FFJ1Z714",
    "name": "北京中医医院顺义医院",
    "location": "116.658111,40.166302",
    "type": "医疗保健服务;综合医院;三级甲等医院",
    "typecode": "090101",
    "address": "马坡镇健盛街1号院",
    "tel": "010-69469671;010-81419999"
  },
  {
    "id": "B0FFFVGQPU",
    "name": "首都医科大学附属北京安贞医院",
    "location": "116.403379,39.973153",
    "type": "医疗保健服务;综合医院;三级甲等医院",
    "typecode": "090101",
    "address": "安贞路2号",
    "tel": "010-64412431"
  },
  {
    "id": "B000A7CGSS",
    "name": "北京大学第三医院(院本部)",
    "location": "116.360010,39.982728",
    "type": "医疗保健服务;综合医院;三级甲等医院",
    "typecode": "090101",
    "address": "花园北路49号",
    "tel": "010-82266699"
  },
  {
    "id": "B000A88E1U",
    "name": "中国中医科学院西苑医院",
    "location": "116.293634,39.995160",
    "type": "医疗保健服务;综合医院;三级甲等医院",
    "typecode": "090101",
    "address": "西苑操场1号",
    "tel": "010-62835678"
  },
  {
    "id": "B000A7FBYE",
    "name": "恒安中医院",
    "location": "116.479090,39.883897",
    "type": "医疗保健服务;综合医院;综合医院",
    "typecode": "090100",
    "address": "西大望路甲27号(平乐园地铁站C东南口步行250米)",
    "tel": "010-87377776"
  },
  {
    "id": "B000A81KKG",
    "name": "首都医科大学附属北京友谊医院西城院区东区",
    "location": "116.393811,39.885534",
    "type": "医疗保健服务;综合医院;三级甲等医院",
    "typecode": "090101",
    "address": "永安路36首都医科大学附属北京友谊医院",
    "tel": "010-63154648;010-63014411"
  },
  {
    "id": "B000A5BA25",
    "name": "北京大学人民医院(西直门院区)",
    "location": "116.354215,39.936961",
    "type": "医疗保健服务;综合医院;三级甲等医院",
    "typecode": "090101",
    "address": "西直门南大街11号",
    "tel": "010-88326666"
  },
  {
    "id": "B000A56455",
    "name": "北京世纪坛医院",
    "location": "116.318681,39.899343",
    "type": "医疗保健服务;综合医院;三级甲等医院",
    "typecode": "090101",
    "address": "羊坊店铁医路10号",
    "tel": "010-63312580"
  },
  {
    "id": "B000A81AUI",
    "name": "大兴区中西医结合医院",
    "location": "116.448259,39.771586",
    "type": "医疗保健服务;综合医院;三级甲等医院",
    "typecode": "090101",
    "address": "瀛海镇中兴庄忠兴南路3号",
    "tel": "010-67992043;010-69271340"
  },
  {
    "id": "B000A83XRE",
    "name": "东直门医院东城院区",
    "location": "116.427707,39.937140",
    "type": "医疗保健服务;综合医院;三级甲等医院",
    "typecode": "090101",
    "address": "海运仓5号",
    "tel": "010-84013276"
  },
  {
    "id": "B000A88EDY",
    "name": "首都医科大学附属北京妇产医院西院",
    "location": "116.404272,39.920566",
    "type": "医疗保健服务;专科医院;专科医院",
    "typecode": "090200",
    "address": "骑河楼街17号",
    "tel": "010-52277270;010-52277666"
  },
  {
    "id": "B000A8VWF2",
    "name": "武警北京总队医院",
    "location": "116.458355,39.935488",
    "type": "医疗保健服务;综合医院;综合医院",
    "typecode": "090100",
    "address": "东三里屯1号院",
    "tel": "010-56391188;010-64161188;010-84028819"
  },
  {
    "id": "B0FFFYTUKL",
    "name": "首都医科大学附属北京天坛医院",
    "location": "116.315116,39.834651",
    "type": "医疗保健服务;综合医院;三级甲等医院",
    "typecode": "090101",
    "address": "南四环西路119号(南四环花乡桥东北)",
    "tel": "010-59976611"
  },
  {
    "id": "B000A7CNNE",
    "name": "北京大学第一医院",
    "location": "116.380745,39.931911",
    "type": "医疗保健服务;综合医院;三级甲等医院",
    "typecode": "090101",
    "address": "西什库大街8号",
    "tel": "010-83572211;010-83572544"
  },
  {
    "id": "B0H6JUETON",
    "name": "北京积水潭医院(新龙泽院区)",
    "location": "116.302891,40.065282",
    "type": "医疗保健服务;综合医院;三级甲等医院",
    "typecode": "090101",
    "address": "龙域环路38号院",
    "tel": "010-58516688"
  },
  {
    "id": "B000A7Z185",
    "name": "北京大学第一医院(妇产儿童医院)",
    "location": "116.382055,39.923455",
    "type": "医疗保健服务;专科医院;专科医院",
    "typecode": "090200",
    "address": "西安门大街1号",
    "tel": "010-83572544;010-83572211"
  },
  {
    "id": "B000A8VY3Y",
    "name": "北京中国人民解放军第三零五医院",
    "location": "116.384509,39.925732",
    "type": "医疗保健服务;综合医院;三级甲等医院",
    "typecode": "090101",
    "address": "文津街甲13号",
    "tel": "010-66799094"
  },
  {
    "id": "B0FFHDV3WZ",
    "name": "北京大学第一医院(大兴院区)",
    "location": "116.333224,39.768378",
    "type": "医疗保健服务;综合医院;三级甲等医院",
    "typecode": "090101",
    "address": "高米店街道乐园路5号",
    "tel": "010-83572211"
  },
  {
    "id": "B000A8VWCK",
    "name": "中国人民解放军总医院第七医学中心",
    "location": "116.429131,39.930995",
    "type": "医疗保健服务;综合医院;三级甲等医院",
    "typecode": "090101",
    "address": "东四十条南门仓胡同5号",
    "tel": "010-66721629"
  },
  {
    "id": "B000A95CEU",
    "name": "首都医科大学附属北京朝阳医院石景山院区",
    "location": "116.209376,39.900177",
    "type": "医疗保健服务;综合医院;三级甲等医院",
    "typecode": "090101",
    "address": "京原路5号",
    "tel": "010-51718135"
  },
  {
    "id": "B000AA0MC0",
    "name": "北京中医药大学东直门医院国际部",
    "location": "116.416659,39.930733",
    "type": "医疗保健服务;综合医院;三级甲等医院",
    "typecode": "090101",
    "address": "东四北大街279号(张自忠路地铁站D西南口步行280米)",
    "tel": "010-84012662"
  },
  {
    "id": "B0FFFADKQX",
    "name": "北京中医药大学东方医院西院区",
    "location": "116.204378,39.830058",
    "type": "医疗保健服务;综合医院;三级甲等医院",
    "typecode": "090101",
    "address": "陈庄大街1号",
    "tel": "010-83363838"
  },
  {
    "id": "B000A8370S",
    "name": "中日友好医院本部",
    "location": "116.426883,39.974097",
    "type": "医疗保健服务;综合医院;三级甲等医院",
    "typecode": "090101",
    "address": "樱花园东街2号",
    "tel": "010-84205566"
  },
  {
    "id": "B000A80ZRG",
    "name": "首都医科大学附属北京安定医院",
    "location": "116.376791,39.952767",
    "type": "医疗保健服务;综合医院;三级甲等医院",
    "typecode": "090101",
    "address": "安康胡同5号",
    "tel": "010-86430066"
  },
  {
    "id": "B000A0A5FB",
    "name": "北京市房山区中医医院总院",
    "location": "115.982416,39.695981",
    "type": "医疗保健服务;综合医院;三级甲等医院",
    "typecode": "090101",
    "address": "房山南大街151号",
    "tel": "010-69314293"
  },
  {
    "id": "B000A83AJ9",
    "name": "北京中西医结合医院",
    "location": "116.265884,39.906383",
    "type": "医疗保健服务;综合医院;三级甲等医院",
    "typecode": "090101",
    "address": "永定路86号",
    "tel": "010-68212075;010-88223585"
  },
  {
    "id": "B000A8W0ML",
    "name": "中国人民解放军总医院第四医学中心",
    "location": "116.304460,39.925292",
    "type": "医疗保健服务;综合医院;三级甲等医院",
    "typecode": "090101",
    "address": "阜成路51号",
    "tel": "010-66867304;010-68410322"
  },
  {
    "id": "B000A2EF2C",
    "name": "北京大学第六医院海淀院区",
    "location": "116.357522,39.982328",
    "type": "医疗保健服务;综合医院;三级甲等医院",
    "typecode": "090101",
    "address": "花园北路51号",
    "tel": "010-82801936;010-82801939"
  },
  {
    "id": "B000A8UWH3",
    "name": "北京博爱医院",
    "location": "116.378244,39.849336",
    "type": "医疗保健服务;综合医院;三级甲等医院",
    "typecode": "090101",
    "address": "角门北路10号",
    "tel": "010-67563322"
  },
  {
    "id": "B000A889VE",
    "name": "清华大学玉泉医院",
    "location": "116.246394,39.908375",
    "type": "医疗保健服务;综合医院;三级甲等医院",
    "typecode": "090101",
    "address": "石景山路5号",
    "tel": "010-51997799;010-88257755"
  },
  {
    "id": "B0FFG8Z4E8",
    "name": "中日友好医院西区",
    "location": "116.367955,40.009982",
    "type": "医疗保健服务;综合医院;三级甲等医院",
    "typecode": "090101",
    "address": "双泉堡甲2号",
    "tel": "010-53236512"
  },
  {
    "id": "B0FFGBR2OZ",
    "name": "中国康复研究中心",
    "location": "116.372692,39.848907",
    "type": "医疗保健服务;综合医院;三级甲等医院|医疗保健服务;专科医院;专科医院",
    "typecode": "090101|090200",
    "address": "角门北路18号(角门西地铁站B东北口步行290米)",
    "tel": "010-67563322"
  },
  {
    "id": "B000A5D5AE",
    "name": "北京积水潭医院(新街口院区)",
    "location": "116.375548,39.944500",
    "type": "医疗保健服务;综合医院;三级甲等医院",
    "typecode": "090101",
    "address": "新街口东街31号",
    "tel": "010-58516688"
  },
  {
    "id": "B0FFGFNTL2",
    "name": "北京儿童医院妇儿中心",
    "location": "116.672164,40.114598",
    "type": "医疗保健服务;专科医院;专科医院",
    "typecode": "090200",
    "address": "顺康路1号",
    "tel": "010-81412345"
  },
  {
    "id": "B000A8VUC6",
    "name": "北京市肛肠医院",
    "location": "116.380225,39.959576",
    "type": "医疗保健服务;综合医院;三级甲等医院",
    "typecode": "090101",
    "address": "德外大街16号",
    "tel": "010-57763088;010-57763114"
  },
  {
    "id": "B0FFHP1EVG",
    "name": "北京市平谷区医院",
    "location": "117.104734,40.146841",
    "type": "医疗保健服务;综合医院;综合医院",
    "typecode": "090100",
    "address": "新平北路59号",
    "tel": "010-89992001;010-89992020"
  },
  {
    "id": "B000A7YYPT",
    "name": "北京中医药大学附属护国寺中医医院住院院区",
    "location": "116.376153,39.936515",
    "type": "医疗保健服务;综合医院;三级甲等医院",
    "typecode": "090101",
    "address": "棉花胡同83号护国寺中医医院",
    "tel": "010-56895700"
  },
  {
    "id": "B000A81KK9",
    "name": "首都医科大学附属北京同仁医院西区",
    "location": "116.417224,39.902721",
    "type": "医疗保健服务;综合医院;三级甲等医院",
    "typecode": "090101",
    "address": "东交民巷1号",
    "tel": "010-58266699;010-58269911"
  },
  {
    "id": "B000AB9B0M",
    "name": "北京市昌平区中西医结合医院",
    "location": "116.366020,40.076077",
    "type": "医疗保健服务;综合医院;三级甲等医院",
    "typecode": "090101",
    "address": "黄平路219号",
    "tel": "010-58596000"
  },
  {
    "id": "B000A78EA8",
    "name": "北京市和平里医院",
    "location": "116.413255,39.958168",
    "type": "医疗保健服务;综合医院;三级甲等医院",
    "typecode": "090101",
    "address": "和平里北街18号",
    "tel": "010-58043000"
  },
  {
    "id": "B0FFFADRYY",
    "name": "北京市丰台中西医结合医院",
    "location": "116.210349,39.820237",
    "type": "医疗保健服务;综合医院;三级甲等医院",
    "typecode": "090101",
    "address": "长辛店街道东山坡三里甲60-63号",
    "tel": "010-83862760;010-83876520"
  },
  {
    "id": "B000A07FA1",
    "name": "北京市昌平区中医医院",
    "location": "116.241696,40.216226",
    "type": "医疗保健服务;综合医院;三级甲等医院",
    "typecode": "090101",
    "address": "东环路南段",
    "tel": "010-69712343;010-69742196"
  },
  {
    "id": "B0FFG8VTYD",
    "name": "北京马应龙长青肛肠医院",
    "location": "116.258247,39.976006",
    "type": "医疗保健服务;专科医院;专科医院",
    "typecode": "090200",
    "address": "闵庄路3号清华科技园玉泉慧谷9栋",
    "tel": "010-88850789;010-88855599"
  },
  {
    "id": "B000A7WHGI",
    "name": "首都医科大学附属北京妇产医院东院",
    "location": "116.471338,39.931304",
    "type": "医疗保健服务;专科医院;专科医院",
    "typecode": "090200",
    "address": "姚家园路251号",
    "tel": "010-52276699"
  },
  {
    "id": "B0FFFADE8M",
    "name": "北京王府中西医结合医院",
    "location": "116.414202,40.106208",
    "type": "医疗保健服务;综合医院;三级甲等医院",
    "typecode": "090101",
    "address": "北七家王府街1号",
    "tel": "010-81779999"
  },
  {
    "id": "B0FFJYB8P5",
    "name": "中国人民解放军总医院第三医学中心",
    "location": "116.263564,39.911186",
    "type": "医疗保健服务;综合医院;三级甲等医院",
    "typecode": "090101",
    "address": "永定路69号",
    "tel": "010-57976688;010-88276688"
  }
]